{"1085571712":{"location":[49.9775652,88.6463212],"ct":"RU","tp":"CS","ts":"2022-08-11T10:48:59Z","tX":764,"tY":347,"tags":{"name":"Алтай Paradise","phone":"+7-913-996-57-77"}},"1085604915":{"location":[49.9684363,88.645784],"ct":"RU","tp":"CS","ts":"2022-08-11T13:23:33Z","tX":764,"tY":347,"tags":{"name":"Лиана","phone":"+7-913-991-13-53"}},"1085604917":{"location":[49.9948878,88.6857878],"ct":"RU","tp":"CS","ts":"2022-08-11T13:23:33Z","tX":764,"tY":347,"tags":{"name":"Сухой лог","phone":"+7-913-998-73-76"}},"1085604918":{"location":[50.0088643,88.6915858],"ct":"RU","tp":"CS","ts":"2022-08-11T13:23:33Z","tX":764,"tY":347,"tags":{"name":"Ташту-Кёль","phone":"+7-913-998-12-97"}},"1085604919":{"location":[50.0099639,88.6693331],"ct":"RU","tp":"CS","ts":"2025-06-05T08:24:00Z","tX":764,"tY":347,"tags":{"barrier":"fence","name":"Привал","phone":"+7-913-999-89-93"}},"1085604921":{"location":[50.0110176,88.6588197],"ct":"RU","tp":"CS","ts":"2022-08-11T13:23:33Z","tX":764,"tY":347,"tags":{"name":"Керуен","phone":"+7-913-998-06-76"}},"1085604923":{"location":[50.0144406,88.640637],"ct":"RU","tp":"CS","ts":"2022-08-11T13:23:33Z","tX":764,"tY":347,"tags":{"name":"Ворота в Азию","phone":"+7-913-994-62-22"}},"1085604925":{"location":[50.0186866,88.6058253],"ct":"RU","tp":"CS","ts":"2022-08-11T13:23:33Z","tX":764,"tY":347,"tags":{"name":"Солнечный кемпинг","phone":"+7-983-580-82-82"}},"12231912503":{"location":[49.967261,88.644832],"ct":"RU","tp":"CS","ts":"2024-10-07T14:31:53Z","tX":764,"tY":347,"tags":{"addr:housenumber":"22а","addr:postcode":"649780","addr:street":"Армейская улица","name":"База отдыха \"Шум ручья\"","opening_hours":"24/7","phone":"+79136932563;+79830520663"}}}