{"423387148":{"location":[50.7247135,86.2746853],"ct":"RU","tp":"CS","ts":"2022-08-11T07:53:46Z","tX":757,"tY":344,"tags":{"name":"Янтарный сад","phone":"+7-960-967-73-66"}},"606423107":{"location":[50.6632898,86.2854128],"ct":"RU","tp":"CS","ts":"2022-08-11T07:53:46Z","tX":757,"tY":344,"tags":{"barrier":"fence","name":"Эр-Самыр","phone":"+7-961-893-78-25","residential":"rural"}},"606798313":{"location":[50.6149105,86.4333788],"ct":"RU","tp":"CS","ts":"2022-08-10T15:14:34Z","tX":757,"tY":344,"tags":{"barrier":"fence","camp_site":"serviced","name":"Эркелей","phone":"+7-913-993-31-07"}},"606798382":{"location":[50.6306356,86.416204],"ct":"RU","tp":"CS","ts":"2022-08-10T15:14:34Z","tX":757,"tY":344,"tags":{"barrier":"fence","name":"Отдохни","phone":"+7-913-691-24-59"}},"753174790":{"location":[50.7344163,86.1759827],"ct":"RU","tp":"CS","ts":"2022-08-11T07:53:46Z","tX":757,"tY":344,"tags":{"barrier":"fence","name":"Алтын Туу","phone":"+7-913-992-63-80"}},"753174792":{"location":[50.7353033,86.1754973],"ct":"RU","tp":"CS","ts":"2023-03-23T15:06:20Z","tX":757,"tY":344,"tags":{"barrier":"fence","name":"Азулу","phone":"+7-983-327-55-55"}},"864308778":{"location":[50.7363592,86.1631925],"ct":"RU","tp":"CS","ts":"2022-08-11T07:53:46Z","tX":757,"tY":344,"tags":{"barrier":"fence","contact:instagram":"altay_villa_ursul","contact:phone":"+79136995620","name":"Вилла \"Урсул\""}},"865429636":{"location":[50.7354659,86.172876],"ct":"RU","tp":"CS","ts":"2023-03-23T15:06:20Z","tX":757,"tY":344,"tags":{"barrier":"fence","name":"Kan Altai","phone":"+7-913-996-39-59"}},"865429663":{"location":[50.7364101,86.1842305],"ct":"RU","tp":"CS","ts":"2022-08-11T07:53:46Z","tX":757,"tY":344,"tags":{"barrier":"fence","name":"Алтай-Кедр","phone":"+7-913-698-91-32"}},"1085376864":{"location":[50.6456727,86.3932913],"ct":"RU","tp":"CS","ts":"2022-11-05T07:33:40Z","tX":757,"tY":344,"tags":{"name":"Ильгумень-2","phone":"+7-983-325-01-24"}},"1085376865":{"location":[50.6405563,86.3505861],"ct":"RU","tp":"CS","ts":"2022-08-10T15:14:34Z","tX":757,"tY":344,"tags":{"name":"База отдыха","phone":"+7-983-582-19-09"}},"1085376866":{"location":[50.6410405,86.3385307],"ct":"RU","tp":"CS","ts":"2022-08-10T15:17:15Z","tX":757,"tY":344,"tags":{"name":"Чике-Таман","phone":"8-​​​​​​​983-328-4411"}},"1085537115":{"location":[50.7207779,86.2956977],"ct":"RU","tp":"CS","ts":"2022-08-11T07:53:46Z","tX":757,"tY":344,"tags":{"name":"Алтын","phone":"+7-913-990-22-73"}},"1085537117":{"location":[50.7247671,86.2626237],"ct":"RU","tp":"CS","ts":"2022-08-11T07:53:46Z","tX":757,"tY":344,"tags":{"name":"Малина","phone":"+7-913-889-48-33"}},"1085537118":{"location":[50.7319078,86.2303777],"ct":"RU","tp":"CS","ts":"2022-08-11T07:53:46Z","tX":757,"tY":344,"tags":{"addr:housenumber":"1/1","addr:street":"Р256 трасса","name":"Коктубель","opening_hours":"24/7","phone":"89836037125","website":"https://instagram.com/koktubel_altay"}},"1085537121":{"location":[50.7355088,86.1742945],"ct":"RU","tp":"CS","ts":"2023-03-23T15:06:20Z","tX":757,"tY":344,"tags":{"barrier":"fence","name":"Карэм","phone":"+7-983-349-32-03"}},"1096252182":{"location":[50.7348819,86.1765098],"ct":"RU","tp":"CS","ts":"2022-09-20T10:47:32Z","tX":757,"tY":344,"tags":{"barrier":"fence","name":"Алтын Чакы","phone":"+7-983-327-77-04"}},"1096252183":{"location":[50.7331999,86.1810694],"ct":"RU","tp":"CS","ts":"2022-09-20T10:47:32Z","tX":757,"tY":344,"tags":{"barrier":"fence","name":"Онгудай Эко Village","phone":"+79139919399"}},"2444473389":{"location":[50.7251162,86.3029013],"ct":"RU","tp":"CS","ts":"2021-05-12T06:01:33Z","tX":757,"tY":344,"tags":{"backcountry":"no","camp_site":"basic","impromptu":"yes"}},"4397747189":{"location":[50.6180398,86.4618653],"ct":"RU","tp":"CS","ts":"2016-09-12T16:26:50Z","tX":757,"tY":344,"tags":{"name":"Camping Russia II"}},"10012691117":{"location":[50.6925937,86.2908455],"ct":"RU","tp":"CS","ts":"2022-09-10T06:45:35Z","tX":757,"tY":344,"tags":{"name":"Катюша"}},"11057969305":{"location":[50.7212856,86.2206878],"ct":"RU","tp":"CS","ts":"2023-10-03T10:08:38Z","tX":757,"tY":344,"tags":{"description":"Места под палатку бесплатно","fee":"no"}},"12005795669":{"location":[50.7261105,86.2039228],"ct":"RU","tp":"CS","ts":"2024-06-24T07:37:23Z","tX":757,"tY":344,"tags":{"name":"Кемпинг Алтайстан","phone":"+79136918197"}},"12109379301":{"location":[50.7261321,86.2451313],"ct":"RU","tp":"CS","ts":"2024-08-14T00:08:25Z","tX":757,"tY":344,"tags":{}},"7735839585":{"location":[50.7305591,86.2439559],"ct":"RU","tp":"CS","ts":"2024-12-26T08:28:48Z","tX":757,"tY":344,"tags":{}}}