{"199532915":{"location":[61.7718582,9.5108717],"ct":"NO","tp":"CS","ts":"2024-03-09T18:15:02Z","tX":539,"tY":287,"tags":{"email":"post@ottacamping.no","fax":"(+47) 61 23 38 19","name":"Otta Camping og Motell","phone":"+47 61 23 03 09","website":"https://ottacamping.no/"}},"619269511":{"location":[61.746476,9.7319072],"ct":"NO","tp":"CS","ts":"2024-03-09T18:15:02Z","tX":539,"tY":287,"tags":{"name":"Bjørgebu Camping","phone":"+47 61 29 49 17","source":"Norge Orthofoto"}},"772705884":{"location":[61.6815329,9.5387481],"ct":"NO","tp":"CS","ts":"2024-03-09T18:15:02Z","tX":539,"tY":287,"tags":{"name":"Sjoa Camping","phone":"+47 995 29 951","website":"https://www.sjoa.no/"}},"3663315384":{"location":[61.666645,9.694399],"ct":"NO","tp":"CS","ts":"2024-03-09T18:03:50Z","tX":539,"tY":287,"tags":{"name":"Kirketeigen Ungdomssenter og Camping","phone":"+47 61 21 60 90","website":"http://www.kirketeigen.no"}},"3663316378":{"location":[61.708223,9.551474],"ct":"NO","tp":"CS","ts":"2024-03-09T18:03:50Z","tX":539,"tY":287,"tags":{"name":"Sjoa Raftingsenter NWR","phone":"+47 61 230700;+47 476 60680","website":"https://www.sjoaraftingsenter.no/"}},"3663316796":{"location":[61.707991,9.552432],"ct":"NO","tp":"CS","ts":"2024-03-09T18:15:02Z","tX":539,"tY":287,"tags":{"name":"Storrusten Gjestehus & Camping Sjoa","phone":"+47 61 23 52 20"}},"3663317143":{"location":[61.72829,9.544885],"ct":"NO","tp":"CS","ts":"2024-03-09T18:15:02Z","tX":539,"tY":287,"tags":{"name":"Sæta Camping","phone":"+47 990 09 658","website":"https://www.saeta.no/"}},"3663317744":{"location":[61.728956,9.546016],"ct":"NO","tp":"CS","ts":"2024-03-09T18:15:02Z","tX":539,"tY":287,"tags":{"name":"Vangen Camping","phone":"+47 411 79 525"}},"11039683904":{"location":[61.6652324,9.7005266],"ct":"NO","tp":"CR","ts":"2023-07-11T12:51:50Z","tX":539,"tY":287,"tags":{"name":"Sinclair Bobilpark"}},"7214185989":{"location":[61.7721797,9.5105693],"ct":"NO","tp":"SD","ts":"2020-02-15T14:46:32Z","tX":539,"tY":287,"tags":{}}}